{
  "version": "1.0.0",
  "lastUpdated": "2025-09-15T00:00:00Z",
  "totalRestaurants": 15,
  "priceRanges": {
    "budget": "1000엔 이하",
    "moderate": "1000-3000엔",
    "expensive": "3000엔 이상"
  },
  "cuisineTypes": {
    "local": "현지 요리",
    "japanese": "일본 요리",
    "international": "서양 요리",
    "seafood": "해산물",
    "cafe": "카페/디저트"
  },
  "restaurants": [
    {
      "id": "rest_001",
      "name": "다이도 식당",
      "nameEn": "Daido Restaurant",
      "cuisine": "local",
      "priceRange": "budget",
      "rating": 4.8,
      "coordinates": { "lat": 24.8056, "lng": 125.2801 },
      "address": "미야코지마시 히라라",
      "phone": "0980-72-xxxx",
      "openHours": {
        "mon": "11:00-14:30, 17:30-21:00",
        "tue": "11:00-14:30, 17:30-21:00",
        "wed": "11:00-14:30, 17:30-21:00",
        "thu": "11:00-14:30, 17:30-21:00",
        "fri": "11:00-14:30, 17:30-21:00",
        "sat": "11:00-14:30, 17:30-21:00",
        "sun": "11:00-14:30, 17:30-21:00"
      },
      "description": "미야코지마 최고의 현지 소바 맛집",
      "specialties": ["미야코 소바", "소키 소바", "야채 챔푸루"],
      "tips": "점심시간에는 대기 필요. 현금만 가능"
    },
    {
      "id": "rest_002",
      "name": "고하 식당",
      "nameEn": "Goha Restaurant",
      "cuisine": "local",
      "priceRange": "moderate",
      "rating": 4.6,
      "coordinates": { "lat": 24.8023, "lng": 125.2834 },
      "address": "미야코지마시 히라라",
      "phone": "0980-73-xxxx",
      "openHours": "11:00-21:00",
      "description": "전통 오키나와 요리 전문점",
      "specialties": ["고야 챔푸르", "라프테", "사타안다기"],
      "tips": "관광객도 많이 찾는 곳. 영어 메뉴 있음"
    },
    {
      "id": "rest_003",
      "name": "시기라 베이 레스토랑",
      "nameEn": "Shigira Bay Restaurant",
      "cuisine": "international",
      "priceRange": "expensive",
      "rating": 4.3,
      "coordinates": { "lat": 24.7512, "lng": 125.3001 },
      "address": "시기라 베이 리조트 내",
      "phone": "0980-74-xxxx",
      "openHours": "18:00-22:00",
      "description": "고급 다이닝과 오션뷰",
      "specialties": ["미야코 비프 스테이크", "랍스터", "와인 페어링"],
      "tips": "예약 필수. 드레스코드 있음"
    },
    {
      "id": "rest_004",
      "name": "아구니의 소금 라멘",
      "nameEn": "Aguni no Shio Ramen",
      "cuisine": "japanese",
      "priceRange": "budget",
      "rating": 4.5,
      "coordinates": { "lat": 24.8089, "lng": 125.2756 },
      "address": "미야코지마시 히라라",
      "phone": "0980-72-yyyy",
      "openHours": "11:30-14:00, 18:00-21:00",
      "description": "아구니 소금을 사용한 라멘 전문점",
      "specialties": ["소금 라멘", "차슈멘", "교자"],
      "tips": "저녁에는 대기가 길 수 있음"
    },
    {
      "id": "rest_005",
      "name": "바다가 보이는 카페",
      "nameEn": "Ocean View Cafe",
      "cuisine": "cafe",
      "priceRange": "moderate",
      "rating": 4.4,
      "coordinates": { "lat": 24.6845, "lng": 125.1234 },
      "address": "요나하 마에하마 해변 근처",
      "phone": "0980-75-xxxx",
      "openHours": "09:00-17:00",
      "description": "해변이 보이는 카페",
      "specialties": ["망고 케이크", "오키나와 커피", "아사이볼"],
      "tips": "선셋 타임이 가장 인기. 와이파이 있음"
    },
    {
      "id": "rest_006",
      "name": "이시가키 수산",
      "nameEn": "Ishigaki Suisan",
      "cuisine": "seafood",
      "priceRange": "moderate",
      "rating": 4.7,
      "coordinates": { "lat": 24.8012, "lng": 125.2798 },
      "address": "미야코지마 어항 근처",
      "phone": "0980-76-xxxx",
      "openHours": "17:00-23:00",
      "description": "신선한 해산물 전문점",
      "specialties": ["오마카세 사시미", "구루쿠마 새우", "바다포도"],
      "tips": "일본어만 가능. 신선도 최고"
    },
    {
      "id": "rest_007",
      "name": "마이펜 레스토랑",
      "nameEn": "Maipen Restaurant",
      "cuisine": "local",
      "priceRange": "budget",
      "rating": 4.2,
      "coordinates": { "lat": 24.8034, "lng": 125.2889 },
      "address": "미야코지마시 중심가",
      "phone": "0980-77-xxxx",
      "openHours": "11:00-22:00",
      "description": "캐주얼한 로컬 레스토랑",
      "specialties": ["타코 라이스", "오키나와 스테이크", "오리온 맥주"],
      "tips": "늦은 시간까지 영업. 가족 단위 추천"
    },
    {
      "id": "rest_008",
      "name": "힐튼 미야코지마 부페",
      "nameEn": "Hilton Miyakojima Buffet",
      "cuisine": "international",
      "priceRange": "expensive",
      "rating": 4.1,
      "coordinates": { "lat": 24.7234, "lng": 125.4123 },
      "address": "힐튼 미야코지마 리조트",
      "phone": "0980-78-xxxx",
      "openHours": "07:00-10:00, 18:00-21:30",
      "description": "호텔 내 고급 부페 레스토랑",
      "specialties": ["국제 요리 부페", "일식 코너", "디저트"],
      "tips": "투숙객 할인 있음. 예약 권장"
    },
    {
      "id": "rest_009",
      "name": "쿠차 식당",
      "nameEn": "Kucha Restaurant",
      "cuisine": "local",
      "priceRange": "moderate",
      "rating": 4.5,
      "coordinates": { "lat": 24.7834, "lng": 125.2567 },
      "address": "미야코지마 서부",
      "phone": "0980-79-xxxx",
      "openHours": "12:00-21:00",
      "description": "홈메이드 스타일 현지 요리",
      "specialties": ["미야코 전통 요리", "자모리 돼지", "아와모리"],
      "tips": "현지인들이 자주 가는 곳"
    },
    {
      "id": "rest_010",
      "name": "도우간 베이커리",
      "nameEn": "Dougan Bakery",
      "cuisine": "cafe",
      "priceRange": "budget",
      "rating": 4.3,
      "coordinates": { "lat": 24.8067, "lng": 125.2723 },
      "address": "미야코지마시 중심가",
      "phone": "0980-80-xxxx",
      "openHours": "07:00-18:00",
      "description": "현지 베이커리 카페",
      "specialties": ["사타안다기", "미야코 망고 빵", "오키나와 커피"],
      "tips": "아침 일찍 갓 구운 빵. 테이크아웃 가능"
    },
    {
      "id": "rest_011",
      "name": "17END 카페",
      "nameEn": "17END Cafe",
      "cuisine": "cafe",
      "priceRange": "moderate",
      "rating": 4.6,
      "coordinates": { "lat": 24.6512, "lng": 125.1876 },
      "address": "이라부섬 17END 근처",
      "phone": "0980-81-xxxx",
      "openHours": "10:00-17:00",
      "description": "이라부섬 끝자락의 절경 카페",
      "specialties": ["망고 스무디", "오키나와 젠자이", "스콘"],
      "tips": "절벽 뷰가 장관. 바람이 셀 수 있음"
    },
    {
      "id": "rest_012",
      "name": "미야코 비프 하우스",
      "nameEn": "Miyako Beef House",
      "cuisine": "japanese",
      "priceRange": "expensive",
      "rating": 4.8,
      "coordinates": { "lat": 24.7923, "lng": 125.2634 },
      "address": "미야코지마 중심가",
      "phone": "0980-82-xxxx",
      "openHours": "18:00-23:00",
      "description": "미야코 와규 전문 레스토랑",
      "specialties": ["미야코 와규", "야키니쿠", "사케"],
      "tips": "고급 식당. 예약 필수"
    },
    {
      "id": "rest_013",
      "name": "바닷가 식당",
      "nameEn": "Seaside Restaurant",
      "cuisine": "seafood",
      "priceRange": "moderate",
      "rating": 4.4,
      "coordinates": { "lat": 24.7456, "lng": 125.1998 },
      "address": "시모지시마 해변가",
      "phone": "0980-83-xxxx",
      "openHours": "11:00-21:00",
      "description": "바다 바로 앞 해산물 레스토랑",
      "specialties": ["활 랍스터", "매운탕", "회덮밥"],
      "tips": "파도 소리 들으며 식사. 신선도 보장"
    },
    {
      "id": "rest_014",
      "name": "미야코 라멘 횡정",
      "nameEn": "Miyako Ramen Yokocho",
      "cuisine": "japanese",
      "priceRange": "budget",
      "rating": 4.1,
      "coordinates": { "lat": 24.8045, "lng": 125.2812 },
      "address": "미야코지마 구 시가지",
      "phone": "0980-84-xxxx",
      "openHours": "19:00-24:00",
      "description": "야시장 스타일 라멘 가게들",
      "specialties": ["돈코츠 라멘", "미소 라멘", "야키토리"],
      "tips": "늦은 밤까지 영업. 현지 분위기"
    },
    {
      "id": "rest_015",
      "name": "선셋 테라스",
      "nameEn": "Sunset Terrace",
      "cuisine": "international",
      "priceRange": "expensive",
      "rating": 4.5,
      "coordinates": { "lat": 24.6789, "lng": 125.1567 },
      "address": "요나하 마에하마 리조트",
      "phone": "0980-85-xxxx",
      "openHours": "17:30-22:00",
      "description": "선셋을 보며 즐기는 파인다이닝",
      "specialties": ["프렌치 퀴진", "와인", "디저트 코스"],
      "tips": "선셋 시간 예약이 인기. 로맨틱한 분위기"
    }
  ]
}